,City,Lat,Lng,Max Temp,Humidity,Cloudiness,Wind Speed,Country,Date
0,Punta Arenas,-53.15,-70.92,35.6,74,74,14.99,CL,1595813940
1,Port-Gentil,-0.72,8.78,74.35,86,60,14.03,GA,1595813941
2,Saint-Philippe,-21.36,55.77,66.2,72,68,4.7,RE,1595813660
3,Deputatsky,69.3,139.9,54.41,70,95,5.61,RU,1595813944
4,Rikitea,-23.12,-134.97,70.38,79,9,19.42,PF,1595813945
5,Tasiilaq,65.61,-37.64,41.0,93,100,8.05,GL,1595813918
6,Thompson,55.74,-97.86,62.6,82,75,2.24,CA,1595813947
7,Clyde River,70.47,-68.59,44.6,81,90,9.17,CA,1595813948
8,Dorchester,33.1,-80.38,81.0,88,1,4.56,US,1595813949
9,Hirara,24.8,125.28,86.0,74,75,13.87,JP,1595813950
10,Matagami,49.75,-77.63,77.0,83,75,3.33,CA,1595813951
11,Kruisfontein,-34.0,24.73,49.5,77,89,4.41,ZA,1595813953
12,Mataura,-46.19,168.86,51.26,59,0,2.04,NZ,1595813954
13,Barrow,71.29,-156.79,48.2,93,90,20.8,US,1595813955
14,Vao,-22.67,167.48,71.44,81,4,15.26,NC,1595813956
15,Lüderitz,-26.65,15.16,57.2,76,0,10.29,NA,1595813957
16,Dombås,62.07,9.12,52.92,84,100,8.03,NO,1595813958
17,Vysokogornyy,50.12,139.15,67.6,81,90,2.77,RU,1595813959
18,Port Alfred,-33.59,26.89,55.51,69,93,6.49,ZA,1595813927
19,Jamestown,42.1,-79.24,73.99,73,1,4.7,US,1595813962
20,Mar del Plata,-38.0,-57.56,52.0,81,90,10.29,AR,1595813963
21,New Norfolk,-42.78,147.06,53.01,76,100,2.08,AU,1595813964
22,Yar-Sale,66.83,70.83,52.18,69,100,9.57,RU,1595813965
23,Lavrentiya,65.58,-171.0,63.0,58,100,16.6,RU,1595813966
24,Fortuna,40.6,-124.16,64.99,73,74,1.99,US,1595813967
25,Ostrovnoy,68.05,39.51,61.07,78,85,0.72,RU,1595813968
26,Ushuaia,-54.8,-68.3,33.8,86,90,27.51,AR,1595813911
27,Codrington,-38.27,141.97,54.73,71,11,19.33,AU,1595813970
28,Peniche,39.36,-9.38,64.0,91,0,8.99,PT,1595813972
29,Kapaa,22.08,-159.32,82.4,78,90,21.92,US,1595813751
30,Busselton,-33.65,115.33,66.0,70,91,22.35,AU,1595813922
31,Bengkulu,-3.8,102.27,81.39,68,4,4.34,ID,1595813975
32,Cagliliog,13.9,123.29,87.4,68,77,2.26,PH,1595813976
33,Zapolyarnyy,69.42,30.81,57.2,82,75,13.87,RU,1595813977
34,Vaini,-21.2,-175.2,69.8,94,75,11.41,TO,1595813978
35,Bluff,-46.6,168.33,49.91,66,0,6.2,NZ,1595813755
36,Fairbanks,64.84,-147.72,69.8,43,75,11.41,US,1595813855
37,Kyra,49.58,111.98,64.17,83,100,5.93,RU,1595813982
38,East London,-33.02,27.91,58.84,67,97,9.69,ZA,1595813666
39,Chui,-33.7,-53.46,46.65,89,5,6.76,UY,1595813984
40,Hermanus,-34.42,19.23,45.0,87,0,12.66,ZA,1595813985
41,Albany,42.6,-73.97,81.0,61,87,5.73,US,1595813726
42,Saraland,30.82,-88.07,78.8,83,1,5.82,US,1595813987
43,Nikolskoye,59.7,30.79,55.0,100,0,2.84,RU,1595813988
44,Hobart,-42.88,147.33,53.01,81,90,4.83,AU,1595813872
45,Padang,-0.95,100.35,77.0,88,20,1.12,ID,1595813961
46,Ilulissat,69.22,-51.1,44.6,93,100,3.36,GL,1595813992
47,Hilo,19.73,-155.09,87.8,62,75,16.11,US,1595813993
48,Makkah al Mukarramah,21.43,39.83,86.23,55,51,3.2,SA,1595813839
49,Ponta do Sol,32.67,-17.1,68.0,72,20,11.41,PT,1595813995
50,Lodwar,3.12,35.6,74.89,66,11,4.16,KE,1595813996
51,Bredasdorp,-34.53,20.04,39.2,86,0,3.74,ZA,1595813997
52,Province of Groningen,53.25,6.75,59.0,82,99,6.93,NL,1595813998
53,Koungou,-12.73,45.2,75.2,73,100,13.87,YT,1595813999
54,Nicoya,10.15,-85.45,82.4,83,100,8.05,CR,1595813723
55,Port Elizabeth,-33.92,25.57,51.8,87,97,6.93,ZA,1595814002
56,Coquimbo,-29.95,-71.34,53.6,76,100,5.82,CL,1595814003
57,Marzuq,14.4,46.47,76.35,64,96,4.34,YE,1595814004
58,Cape Town,-33.93,18.42,54.0,81,0,2.24,ZA,1595813738
59,Cabo San Lucas,22.89,-109.91,88.0,61,5,14.99,MX,1595814006
60,Saint Paul Harbor,57.79,-152.41,60.8,72,90,5.82,US,1595813744
61,Beloha,-25.17,45.05,56.25,77,0,6.22,MG,1595814008
62,Mahébourg,-20.41,57.7,69.8,68,75,13.87,MU,1595814010
63,Longyearbyen,78.22,15.64,57.2,76,7,6.93,SJ,1595814011
64,Montrose,38.42,-108.27,82.4,34,1,9.17,US,1595814012
65,Cayenne,4.93,-52.33,75.2,100,22,8.77,GF,1595813882
66,Hamilton,39.18,-84.53,86.0,78,1,6.93,US,1595814014
67,Rome,43.21,-75.46,80.6,65,1,3.36,US,1595813738
68,São Filipe,14.9,-24.5,75.92,85,70,9.44,CV,1595814016
69,São Félix do Xingu,-6.64,-51.99,71.89,56,0,2.08,BR,1595814017
70,Moose Factory,51.26,-80.61,78.8,83,75,5.82,CA,1595814018
71,Meulaboh,4.14,96.13,79.81,78,96,4.99,ID,1595814020
72,Makakilo City,21.35,-158.09,89.6,52,75,11.41,US,1595814021
73,Kysyl-Syr,63.9,122.76,69.06,52,58,3.2,RU,1595814022
74,Jalu,29.03,21.55,75.42,60,0,7.54,LY,1595813989
75,Lorengau,-2.02,147.27,83.07,79,57,6.67,PG,1595814024
76,Iqaluit,63.75,-68.51,48.2,87,40,3.36,CA,1595814026
77,Hithadhoo,-0.6,73.08,82.62,68,100,5.01,MV,1595814027
78,Avarua,-21.21,-159.78,73.4,83,72,8.05,CK,1595814029
79,Miles City,46.41,-105.84,87.8,19,1,9.17,US,1595814030
80,Hambantota,6.12,81.12,82.4,69,90,10.29,LK,1595813813
81,Russell,32.35,-85.2,82.4,88,40,2.62,US,1595814032
82,Puerto Ayora,-0.74,-90.35,68.0,89,55,8.3,EC,1595814011
83,Al Bardīyah,31.76,25.09,74.75,88,0,12.91,LY,1595814034
84,Hare Bay,48.85,-54.01,60.8,100,90,6.93,CA,1595814036
85,Castro,-24.79,-50.01,54.95,94,100,4.5,BR,1595814037
86,Carnarvon,-24.87,113.63,64.4,88,0,4.7,AU,1595814025
87,Riyadh,24.69,46.72,87.8,38,78,2.44,SA,1595813763
88,Bireun,5.2,96.7,81.41,74,87,4.18,ID,1595814040
89,Lake Havasu City,34.48,-114.32,107.6,9,1,12.75,US,1595813799
90,Nanortalik,60.14,-45.24,43.29,86,4,2.68,GL,1595814043
91,Cabedelo,-6.98,-34.83,71.6,100,90,5.82,BR,1595814044
92,Vuktyl,63.86,57.31,61.0,69,2,5.79,RU,1595814045
93,Atuona,-9.8,-139.03,80.37,73,5,22.68,PF,1595814046
94,Hūn,29.13,15.95,72.55,54,0,6.11,LY,1595814047
95,Emba,48.83,58.14,66.97,57,0,6.35,KZ,1595814048
96,Saskylakh,71.92,114.08,39.63,93,100,16.2,RU,1595814050
97,Sisimiut,66.94,-53.67,45.18,93,100,8.55,GL,1595814051
98,Albury,-36.08,146.92,53.6,93,100,5.82,AU,1595814052
99,Kahului,20.89,-156.47,84.2,70,75,12.75,US,1595814053
100,Sabang,5.89,95.32,82.02,75,79,7.83,ID,1595814054
101,Tongchuanshi,35.08,109.09,79.86,62,0,4.25,CN,1595814055
102,Kaitangata,-46.28,169.85,51.35,61,0,2.89,NZ,1595814057
103,Tuatapere,-46.13,167.68,53.55,59,0,4.07,NZ,1595813705
104,Kashgar,39.45,75.98,77.0,36,40,20.13,CN,1595814059
105,Kruglolesskoye,44.66,42.81,69.01,72,39,8.95,RU,1595814060
106,Brenes,37.55,-5.87,81.0,54,10,3.36,ES,1595814061
107,Leningradskiy,69.38,178.42,60.28,59,100,13.24,RU,1595814062
108,Cherskiy,68.75,161.3,56.23,69,35,24.67,RU,1595814063
109,Kingisepp,59.37,28.61,51.82,85,0,4.21,RU,1595814065
110,Tabou,4.42,-7.35,74.41,83,89,9.48,CI,1595814066
111,Husavik,66.04,-17.34,44.6,75,75,6.93,IS,1595814067
112,Bambous Virieux,-20.34,57.76,70.0,68,75,13.87,MU,1595814068
113,Waiuku,-37.25,174.75,60.01,76,8,3.36,NZ,1595814069
114,Hong Kong,22.29,114.16,89.01,66,20,10.0,HK,1595813867
115,Dikson,73.51,80.55,38.17,89,98,13.78,RU,1595814071
116,Forestville,38.85,-76.88,91.99,58,1,5.82,US,1595814072
117,Muli,2.92,73.57,82.44,69,99,4.83,MV,1595814074
118,Vestmannaeyjar,63.44,-20.27,51.08,87,97,7.67,IS,1595814075
119,Touros,-5.2,-35.46,71.6,94,75,4.7,BR,1595814076
120,Butaritari,3.07,172.79,83.61,75,9,9.78,KI,1595814077
121,Nome,64.5,-165.41,60.01,87,90,14.99,US,1595814078
122,Iralaya,15.0,-83.23,81.91,82,40,13.65,HN,1595814079
123,Prince Rupert,54.32,-130.32,64.4,82,75,6.93,CA,1595813822
124,Muros,42.78,-9.06,62.01,82,0,1.01,ES,1595814081
125,Alyangula,-13.85,136.42,75.76,53,87,15.01,AU,1595814083
126,Petropavlovsk-Kamchatskiy,53.05,158.65,73.4,56,6,2.24,RU,1595814084
127,Yellowknife,62.46,-114.35,70.0,56,75,10.29,CA,1595814045
128,Srednekolymsk,67.45,153.68,71.06,51,100,15.61,RU,1595814086
129,Blagoyevo,63.37,47.92,62.78,76,34,1.83,RU,1595814087
130,Kedrovyy,56.17,91.82,59.0,100,40,8.95,RU,1595814089
131,George Town,5.41,100.34,82.4,88,20,4.7,MY,1595814090
132,Nālūt,30.33,10.85,76.95,35,0,10.85,LY,1595814091
133,Pisco,-13.7,-76.22,61.0,82,90,11.41,PE,1595814092
134,Pacific Grove,36.62,-121.92,64.4,72,1,10.29,US,1595814093
135,Severo-Kuril'sk,50.68,156.12,53.78,85,94,17.36,RU,1595814095
136,Sørland,67.67,12.69,58.71,74,92,19.33,NO,1595814096
137,Batemans Bay,-35.72,150.18,54.0,96,100,5.01,AU,1595814097
138,São João da Barra,-21.64,-41.05,72.63,86,77,11.68,BR,1595813888
139,Portland,45.52,-122.68,98.6,13,1,12.75,US,1595813857
140,Khatanga,71.97,102.5,46.69,63,100,9.78,RU,1595814101
141,Yinchuan,38.47,106.27,90.45,17,0,8.21,CN,1595814102
142,Esperance,-33.87,121.9,60.87,70,80,22.12,AU,1595814104
143,Mindelo,16.89,-24.98,77.0,73,20,8.05,CV,1595814106
144,Guerrero Negro,27.98,-114.06,69.3,81,0,19.86,MX,1595814107
145,Pemangkat,1.17,108.97,81.34,76,38,5.19,ID,1595814108
146,Yumen,40.28,97.2,79.95,17,0,9.33,CN,1595814109
147,Maricá,-22.92,-42.82,71.6,88,40,4.7,BR,1595814110
148,Alekseyevka,50.63,38.69,62.47,62,63,7.94,RU,1595814111
149,Mareeba,-17.0,145.43,82.0,36,0,11.41,AU,1595814112
150,Labuhan,-6.88,112.21,79.18,69,93,9.17,ID,1595813921
151,Dandong,40.13,124.39,70.99,88,100,3.09,CN,1595814115
152,Norman Wells,65.28,-126.83,71.6,49,75,6.93,CA,1595814116
153,Najrān,17.49,44.13,64.4,93,75,11.41,SA,1595814117
154,Qaanaaq,77.48,-69.36,41.97,65,0,2.39,GL,1595814119
155,Kumul,42.8,93.45,88.05,16,0,18.61,CN,1595814120
156,Narsaq,60.92,-46.05,48.2,81,19,8.05,GL,1595814122
157,Gariāband,20.64,82.06,81.59,71,73,4.16,IN,1595814123
158,Olafsvik,64.89,-23.71,47.8,72,35,9.33,IS,1595813847
159,Padre Bernardo,-15.35,-48.5,63.41,54,0,3.94,BR,1595814125
160,Oddur,4.12,43.89,69.55,80,2,16.91,SO,1595814126
161,Naze,28.37,129.48,87.8,89,75,13.87,JP,1595814127
162,Nhamundá,-2.19,-56.71,77.97,65,0,1.97,BR,1595814128
163,Port Keats,-14.25,129.55,80.91,26,100,12.28,AU,1595814130
164,Monrovia,6.3,-10.8,77.0,94,75,5.82,LR,1595814131
165,Humberto de Campos,-2.6,-43.46,74.1,91,0,3.49,BR,1595814132
166,Arraial do Cabo,-22.97,-42.03,73.4,83,75,5.82,BR,1595814133
167,Turaif,31.67,38.66,89.6,29,0,11.41,SA,1595814135
168,Mackay,-21.15,149.2,75.0,36,0,10.27,AU,1595814137
169,Bosaso,11.28,49.18,88.48,45,8,16.11,SO,1595813845
170,Broome,42.25,-75.83,78.8,61,1,3.36,US,1595814139
171,Ribeira Grande,38.52,-28.7,73.06,90,11,4.99,PT,1595814140
172,Puerto Baquerizo Moreno,-0.9,-89.6,67.37,88,42,10.07,EC,1595814011
173,Jacareacanga,-6.22,-57.75,74.86,56,0,1.01,BR,1595814142
174,Los Llanos de Aridane,28.66,-17.92,71.6,73,20,14.99,ES,1595814143
175,Soyo,-6.13,12.37,70.99,87,6,5.46,AO,1595814145
176,Torbay,47.67,-52.73,55.99,100,90,11.41,CA,1595814146
177,Junín,-34.58,-60.94,45.0,73,79,3.0,AR,1595813947
178,Mikhaylovka,50.06,43.24,63.0,52,14,1.01,RU,1595814149
179,Preobrazheniye,42.9,133.91,66.27,87,100,12.93,RU,1595814150
180,Adrar,20.5,-10.07,91.35,31,0,10.04,MR,1595814151
181,Westport,41.14,-73.36,86.0,45,1,3.36,US,1595814153
182,Rocha,-34.48,-54.33,44.67,91,22,6.24,UY,1595814154
183,Bouna,9.27,-3.0,71.13,88,100,3.74,CI,1595814155
184,Chokurdakh,70.63,147.92,43.25,71,100,12.91,RU,1595814157
185,Alcúdia,39.85,3.12,75.99,60,0,4.7,ES,1595814158
186,Pangnirtung,66.15,-65.71,51.84,70,100,2.21,CA,1595814159
187,Porto Velho,-8.76,-63.9,75.2,88,0,0.16,BR,1595814161
188,Kharp,66.8,65.81,55.94,61,64,5.06,RU,1595814162
189,Abay,49.63,72.85,62.6,77,90,6.58,KZ,1595814163
190,Pevek,69.7,170.31,47.44,84,50,16.67,RU,1595814164
191,Madison,34.73,-86.57,80.01,88,1,3.36,US,1595814165
192,Coyhaique,-45.58,-72.07,33.8,64,19,3.36,CL,1595813955
193,Carutapera,-1.2,-46.02,74.68,92,0,3.36,BR,1595814168
194,Mahon,39.89,4.27,75.2,83,0,4.7,ES,1595813873
195,Hot Springs,34.5,-93.06,86.0,66,1,5.82,US,1595813930
196,Half Moon Bay,37.46,-122.43,77.0,87,90,5.82,US,1595814171
197,Yarmouth,41.71,-70.23,82.4,74,1,8.05,US,1595814106
198,Abu Kamal,34.45,40.92,85.59,21,23,5.46,SY,1595814173
199,Ranong,9.97,98.63,82.4,94,20,1.5,TH,1595814174
200,Toledo,39.83,-4.0,84.2,25,0,3.36,ES,1595813903
201,Puerto Escondido,15.85,-97.07,81.59,77,100,5.91,MX,1595814177
202,Kloulklubed,7.04,134.26,80.6,83,90,9.17,PW,1595814178
203,Sing Buri,14.89,100.4,91.0,80,98,1.01,TH,1595814179
204,Lebu,-37.62,-73.65,48.83,82,81,7.56,CL,1595814180
205,Natchitoches,31.77,-93.13,77.0,94,1,4.7,US,1595814181
206,Balkanabat,39.51,54.37,92.73,19,0,9.6,TM,1595814182
207,Lata,40.16,-8.33,64.0,84,0,3.18,PT,1595814185
208,Arrondissement de Pontivy,48.0,-3.0,60.01,100,0,3.36,FR,1595814186
209,Saldanha,-33.01,17.94,52.27,76,0,12.3,ZA,1595814187
210,Sitka,57.05,-135.33,55.4,87,90,5.82,US,1595814188
211,Bilibino,68.05,166.44,80.94,30,88,25.81,RU,1595814189
212,Bubanza Province,-3.12,29.4,66.45,54,2,1.63,BI,1595814190
213,Vostok,46.49,135.88,79.09,50,47,3.69,RU,1595814191
214,Hobyo,5.35,48.53,77.27,75,4,16.08,SO,1595814192
215,Masty,53.41,24.54,59.7,91,20,1.43,BY,1595814194
216,Skjervøy,70.03,20.97,55.54,77,0,13.89,NO,1595814195
217,Budogoshch',59.28,32.47,53.8,95,2,2.64,RU,1595814196
218,Dalvik,65.97,-18.53,44.6,75,75,6.93,IS,1595814197
219,Verkh-Chebula,56.03,87.62,59.92,90,95,6.67,RU,1595814198
220,Yonezawa,37.92,140.12,84.99,64,100,3.15,JP,1595814199
221,Arrondissement de Muret,43.33,1.25,68.0,72,0,2.24,FR,1595814200
222,Faya,18.39,42.45,64.4,88,20,4.7,SA,1595814202
223,Katsuura,35.13,140.3,87.01,79,100,5.99,JP,1595814203
224,Bull Savanna,17.89,-77.59,78.49,80,0,6.85,JM,1595814205
225,Souillac,-20.52,57.52,69.8,68,75,13.87,MU,1595814206
226,Provideniya,64.38,-173.3,50.0,87,75,17.9,RU,1595814207
227,Mizdah,31.45,12.98,69.21,50,0,3.49,LY,1595814208
228,Dolisie,-4.2,12.67,65.01,92,94,2.82,CG,1595814209
229,Ola,59.58,151.28,60.87,69,0,14.72,RU,1595814210
230,Koster,-25.86,26.9,39.83,64,0,8.48,ZA,1595814212
231,Praia,14.92,-23.51,77.0,83,20,9.17,CV,1595814185
232,Hasaki,35.73,140.83,86.0,74,75,12.75,JP,1595814214
233,Richards Bay,-28.78,32.04,62.71,83,82,10.58,ZA,1595814215
234,Bafoulabé,13.81,-10.83,75.97,90,100,2.64,ML,1595814216
235,Ankazoabo,-22.28,44.52,54.12,67,0,5.41,MG,1595814217
236,Ahipara,-35.17,173.17,58.12,56,30,4.07,NZ,1595814218
237,Saint-Pierre,-21.34,55.48,66.2,72,63,4.7,RE,1595813980
238,Saint George,37.1,-113.58,100.99,10,1,6.93,US,1595814016
239,Auki,-8.77,160.7,85.75,68,9,4.09,SB,1595814222
240,Forsytheganj,52.63,29.73,62.19,95,98,3.8,BY,1595814224
241,Arman',59.7,150.17,63.9,60,0,8.77,RU,1595814225
242,Osmeña,10.52,119.93,84.97,67,67,2.95,PH,1595814226
243,Sulphur Springs,33.14,-95.6,84.0,74,40,10.29,US,1595814209
244,Port Lincoln,-34.73,135.87,57.2,72,79,11.7,AU,1595814230
245,Flinders,-34.58,150.86,60.01,89,100,8.99,AU,1595814231
246,Isangel,-19.55,169.27,84.2,66,40,13.87,VU,1595813930
247,Lagoa,39.05,-27.98,72.37,93,0,8.48,PT,1595814233
248,Mehamn,71.04,27.85,59.63,70,14,7.76,NO,1595814234
249,Bjerkvik,68.56,17.52,62.6,59,2,18.34,NO,1595814235
250,Dunedin,-45.87,170.5,51.01,66,0,23.0,NZ,1595814236
251,Angra dos Reis,-23.01,-44.32,68.07,86,40,3.76,BR,1595814238
252,Kabanjahe,3.1,98.49,80.6,88,40,4.7,ID,1595814239
253,Airai,-8.93,125.41,69.4,54,99,5.75,TL,1595813920
254,Kollam,8.88,76.6,82.4,78,40,3.36,IN,1595814231
255,Bethel,41.37,-73.41,79.0,78,1,4.7,US,1595814242
256,Vila Velha,-20.33,-40.29,69.8,94,75,2.24,BR,1595814243
257,Ituporanga,-27.41,-49.6,57.99,99,100,1.34,BR,1595814245
258,Babu,24.42,111.52,87.4,67,100,4.27,CN,1595814246
259,Harbour Breton,47.48,-55.8,58.28,98,100,5.48,CA,1595814247
260,Mozarlândia,-14.74,-50.57,70.9,38,0,3.89,BR,1595814248
261,Buala,-8.14,159.59,84.85,73,34,9.89,SB,1595814249
262,Santa Isabel Rio Negro,-0.41,-65.02,75.34,82,16,1.92,BR,1595814251
263,Karasburg,-28.02,18.75,54.63,38,0,9.13,NA,1595814252
264,Raudeberg,61.99,5.14,59.0,87,100,16.11,NO,1595814253
265,Verkhoyansk,67.54,133.38,73.06,31,2,15.03,RU,1595814254
266,Hastings,50.86,0.57,60.01,91,100,8.66,GB,1595814255
267,Kudahuvadhoo,2.67,72.89,82.36,70,92,5.41,MV,1595814256
268,San Patricio,19.22,-104.7,84.2,79,75,11.41,MX,1595814258
269,Praia,14.92,-23.51,77.0,83,20,9.17,CV,1595814260
270,Khasan,42.43,130.64,65.91,95,100,8.93,RU,1595814261
271,Bilma,18.69,12.92,89.64,18,29,10.63,NE,1595813928
272,Tacuarembó,-31.73,-55.98,44.26,90,0,5.06,UY,1595814263
273,Winneba,5.35,-0.62,75.2,94,40,9.17,GH,1595814264
274,Mariakani,-3.86,39.47,67.89,93,1,8.86,KE,1595814265
275,Aykhal,66.0,111.5,37.4,86,90,6.71,RU,1595814266
276,Durgapur,23.48,87.32,91.09,58,97,1.88,IN,1595814268
277,Ossora,59.24,163.07,65.44,57,0,6.87,RU,1595814269
278,Derzhavīnsk,51.1,66.32,62.26,82,1,10.31,KZ,1595814270
279,Banjar,-8.19,114.97,80.6,88,40,18.34,ID,1595814271
280,Ciudad Bolivar,8.12,-63.55,79.07,84,100,7.25,VE,1595814272
281,Ishigaki,24.34,124.16,87.8,79,75,13.87,JP,1595814273
282,Havelock,34.88,-76.9,84.2,74,5,6.93,US,1595814275
283,Ginda,30.69,78.49,75.2,100,90,1.95,IN,1595814276
284,Abhā,18.22,42.51,64.4,88,20,4.7,SA,1595814277
285,Ust'-Ilimsk,58.0,102.66,73.72,47,0,3.18,RU,1595814278
286,Yurga,55.72,84.89,59.04,81,58,3.49,RU,1595814279
287,Mariveles,14.48,120.48,87.8,70,40,6.93,PH,1595814280
288,Chernyshevskiy,63.01,112.47,60.64,50,0,5.14,RU,1595814281
289,Laas,46.62,10.7,57.0,100,5,3.36,IT,1595814282
290,Dolores,-36.31,-57.68,48.42,74,100,9.98,AR,1595814284
291,Scarborough,54.28,-0.4,59.0,82,100,4.0,GB,1595814285
292,Santa Maria da Boa Vista,-8.81,-39.83,70.54,69,78,16.69,BR,1595814286
293,Chapais,49.78,-74.85,69.8,94,90,2.24,CA,1595814076
294,Vardø,70.37,31.11,58.51,73,5,10.33,NO,1595814288
295,Verkhnyaya Inta,65.98,60.31,54.12,73,27,7.47,RU,1595814290
296,Gao,16.64,1.64,92.62,37,45,7.63,ML,1595814291
297,Bathsheba,13.22,-59.52,80.6,83,20,9.17,BB,1595814292
298,Dayong,25.02,118.29,89.6,70,40,6.71,CN,1595814293
299,Safranbolu,41.25,32.69,64.78,70,55,1.72,TR,1595814294
300,Mitsamiouli,-11.38,43.28,75.06,78,100,11.1,KM,1595814295
301,Malbork,54.04,19.03,63.0,100,100,6.85,PL,1595814297
302,Ulladulla,-35.35,150.47,55.4,100,90,33.33,AU,1595814298
303,Carbonia,39.17,8.52,78.01,79,0,1.01,IT,1595814299
304,Port Augusta,-32.5,137.77,57.2,82,90,11.41,AU,1595814012
305,Bousso,10.48,16.71,71.83,95,98,4.63,TD,1595814301
306,Tateyama,34.98,139.87,82.4,88,75,11.41,JP,1595814302
307,Namtsy,62.72,129.67,73.4,53,100,2.24,RU,1595814303
308,Hay River,60.82,-115.8,71.6,60,75,9.17,CA,1595814304
309,Mutare,-18.97,32.67,46.58,95,15,1.88,ZW,1595814306
310,Yermekeyevo,54.08,53.67,54.9,90,71,4.5,RU,1595814307
311,Harper,4.38,-7.72,74.44,82,92,9.06,LR,1595814308
312,Iquitos,-3.75,-73.25,72.0,95,99,1.77,PE,1595814200
313,Bianzhuang,34.85,118.04,78.4,71,30,6.53,CN,1595814310
314,Ancud,-41.87,-73.82,39.99,93,75,3.36,CL,1595814311
315,Necochea,-38.55,-58.74,48.0,78,72,4.0,AR,1595814312
316,Puerto del Rosario,28.5,-13.86,73.4,78,90,19.46,ES,1595814313
317,Belaya Gora,68.53,146.42,70.32,47,85,12.21,RU,1595814315
318,Tiksi,71.69,128.87,37.45,93,100,9.22,RU,1595814316
319,Barra Patuca,15.8,-84.28,80.92,83,100,12.15,HN,1595814317
320,Batagay,67.63,134.63,72.48,33,0,13.15,RU,1595814318
321,Nouadhibou,20.93,-17.03,71.6,83,0,23.04,MR,1595814319
322,Ust'-Koksa,50.27,85.61,60.35,70,88,1.28,RU,1595814320
323,Semey,50.41,80.23,60.8,82,95,0.78,KZ,1595814025
324,Trat,12.5,102.5,84.6,74,100,3.56,TH,1595814322
325,Samarai,-10.62,150.67,79.9,83,24,10.4,PG,1595814323
326,Lhokseumawe,5.18,97.15,81.25,78,91,5.57,ID,1595814325
327,Maţāy,28.42,30.78,73.98,59,0,12.82,EG,1595814326
328,Baruun-Urt,46.68,113.28,67.44,70,89,5.28,MN,1595814327
329,Baghdad,33.34,44.4,91.4,33,0,3.36,IQ,1595814174
330,Vitim,59.45,112.56,70.21,53,100,8.41,RU,1595814329
331,Kyren,51.68,102.14,70.56,54,65,0.36,RU,1595814330
332,Sirte,31.21,16.59,76.32,83,0,5.61,LY,1595814332
333,Ubinskoye,55.31,79.68,58.87,80,13,3.33,RU,1595814333
334,Vestmanna,62.16,-7.17,48.2,87,100,12.75,FO,1595814334
335,Kautokeino,69.01,23.04,51.57,91,0,7.92,NO,1595814335
336,Prieska,-29.66,22.75,45.45,57,32,6.17,ZA,1595814336
337,Ayacucho,-13.16,-74.22,54.28,64,1,3.09,PE,1595814337
338,Tanout,14.97,8.89,85.15,53,100,20.94,NE,1595814338
339,Fort Nelson,58.81,-122.7,80.6,39,40,3.36,CA,1595814332
340,Tete,-16.16,33.59,53.6,81,20,3.36,MZ,1595814341
341,Anadyr,64.75,177.48,75.2,64,0,8.95,RU,1595814342
342,Victoria Point,-27.58,153.3,63.0,67,41,4.0,AU,1595814343
343,Orocué,4.79,-71.34,72.99,91,82,2.3,CO,1595814344
344,Kovūr,14.48,79.98,84.31,59,91,16.28,IN,1595814345
345,Šeduva,55.77,23.77,59.0,87,6,5.82,LT,1595814346
346,Ambilobe,-13.2,49.05,66.72,85,100,1.68,MG,1595814347
347,Hofn,64.25,-15.21,47.79,63,100,8.59,IS,1595814348
348,San Policarpo,12.18,125.51,84.58,72,77,3.04,PH,1595814350
349,Jumla,29.27,82.18,66.65,64,77,2.26,NP,1595814351
350,Coos Bay,43.37,-124.22,78.01,72,1,9.17,US,1595814352
351,Nīlēshwar,12.25,75.1,78.67,84,15,4.56,IN,1595814353
352,Upernavik,72.79,-56.15,43.43,81,39,7.25,GL,1595814354
353,Guarapari,-20.67,-40.5,69.8,94,75,2.24,BR,1595814355
354,La Sarre,48.8,-79.2,70.61,88,88,4.41,CA,1595814231
355,Cidreira,-30.18,-50.21,57.33,88,100,10.96,BR,1595814357
356,Mahibadhoo,3.78,72.97,82.4,64,80,3.56,MV,1595814359
357,Ibotirama,-12.19,-43.22,67.93,69,0,3.04,BR,1595814360
358,Navegantes,-26.9,-48.65,61.0,87,90,5.82,BR,1595814361
359,Volgodonsk,47.51,42.15,69.8,36,50,9.93,RU,1595814362
360,Ust'-Shonosha,61.15,41.34,55.04,81,34,2.42,RU,1595814363
361,Hillsborough,37.57,-122.38,77.0,63,20,23.04,US,1595814320
362,Brigantine,39.41,-74.36,86.0,66,1,5.82,US,1595814237
363,Funtua,11.52,7.31,70.38,90,82,7.61,NG,1595814367
364,Camacha,33.08,-16.33,69.8,73,40,9.17,PT,1595814368
365,Goderich,43.75,-81.72,81.0,79,100,5.99,CA,1595814369
366,Kristiansund,63.11,7.73,57.2,87,100,24.16,NO,1595814370
367,Port Macquarie,-31.43,152.92,69.01,62,47,1.01,AU,1595814371
368,Manjacaze,-24.71,33.88,56.39,79,0,3.98,MZ,1595814374
369,Popondetta,-8.75,148.25,87.15,61,25,5.79,PG,1595814375
370,Worthing,50.81,-0.37,62.01,1,100,5.01,GB,1595814108
371,Zaysan,47.47,84.87,71.67,45,90,4.56,KZ,1595814379
372,Saquarema,-22.92,-42.51,73.4,83,75,5.82,BR,1595814347
373,Bulungu,-4.55,18.6,74.35,49,18,0.89,CD,1595814381
374,Novozaimka,56.49,66.92,58.32,79,66,5.12,RU,1595814382
375,Dhidhdhoo,6.88,73.1,81.72,73,60,8.23,MV,1595814383
376,Salalah,17.02,54.09,78.8,94,75,2.24,OM,1595814384
377,Neiafu,-18.65,-173.98,78.8,78,40,11.41,TO,1595814386
378,Vilhena,-12.74,-60.15,68.63,51,0,1.79,BR,1595814387
379,Deogarh,21.53,84.73,85.01,64,97,2.37,IN,1595814388
380,Dehlorān,32.69,47.27,98.44,11,0,8.16,IR,1595814389
381,Tuktoyaktuk,69.45,-133.04,66.2,63,75,4.7,CA,1595814391
382,Guangyuan,32.44,105.82,82.99,72,71,1.99,CN,1595814392
383,College,64.86,-147.8,69.8,46,75,5.82,US,1595814394
384,Terekli-Mekteb,44.17,45.87,74.21,64,0,8.46,RU,1595814395
385,Mikkeli,61.69,27.27,54.0,98,14,2.35,FI,1595814396
386,Banda Aceh,5.56,95.32,82.09,72,98,5.82,ID,1595814398
387,Bela,25.93,81.98,92.12,49,77,8.99,IN,1595814400
388,Saint-Augustin,51.23,-58.65,54.01,94,20,7.02,CA,1595814403
389,Makokou,0.57,12.86,68.27,97,95,3.62,GA,1595814404
390,Bud,39.45,-86.18,84.2,70,1,6.93,US,1595814405
391,São Pedro do Sul,-29.62,-54.18,48.2,93,0,2.24,BR,1595814406
392,Paamiut,61.99,-49.67,45.12,91,47,0.38,GL,1595814407
393,Tonj,7.27,28.68,68.05,97,84,4.72,SS,1595814408
394,Manaure,11.78,-72.44,82.15,75,100,14.67,CO,1595814409
395,Rabo de Peixe,37.8,-25.58,69.8,88,75,5.82,PT,1595814412
396,Tigil',57.8,158.67,69.3,47,0,8.9,RU,1595814413
397,At-Bashi,41.17,75.81,57.74,72,100,2.44,KG,1595814414
398,Lompoc,34.64,-120.46,68.0,68,1,12.75,US,1595814120
399,Bodden Town,19.28,-81.25,84.99,76,0,5.99,KY,1595814416
400,Taksimo,56.34,114.88,65.68,87,100,3.8,RU,1595814418
401,Avera,33.19,-82.53,82.4,78,1,3.29,US,1595814419
402,Mosetse,-20.75,26.65,45.66,57,0,8.12,BW,1595814420
403,Zhangjiakou Shi Xuanhua Qu,40.61,115.04,71.38,70,95,7.96,CN,1595814421
404,Vila,42.03,-8.16,63.0,82,0,3.36,PT,1595814422
405,Faro,37.02,-7.93,78.8,61,0,6.93,PT,1595814423
406,Mabaruma,8.2,-59.78,75.85,91,77,2.35,GY,1595814425
407,Mapiripán,2.89,-72.13,69.57,93,87,1.97,CO,1595814426
408,Kavieng,-2.57,150.8,83.59,73,100,6.24,PG,1595814427
409,Farah,32.5,62.5,78.31,22,0,5.06,AF,1595814265
410,Kodinsk,58.69,99.18,62.13,77,80,2.35,RU,1595814429
411,Uruçuí,-7.23,-44.56,76.57,47,0,9.6,BR,1595814430
412,Gorontalo,0.54,123.06,82.47,74,85,7.61,ID,1595814431
413,Virginia Beach,36.85,-75.98,80.01,88,75,11.18,US,1595813998
414,Bukama,-9.2,25.85,59.97,49,12,3.06,CD,1595814434
415,Sānand,22.98,72.38,82.4,88,20,4.7,IN,1595814435
416,Sorong,-0.88,131.25,82.83,77,79,8.1,ID,1595814436
417,Kattivākkam,13.22,80.32,84.2,79,75,4.7,IN,1595814438
418,Mossamedes,-15.2,12.15,66.34,75,0,4.54,AO,1595814439
419,Gondanglegi,-7.75,112.01,79.16,67,0,15.5,ID,1595814440
420,Te Anau,-45.42,167.72,49.12,67,0,0.96,NZ,1595814442
421,Nemuro,43.32,145.57,60.8,87,75,2.24,JP,1595814443
422,Pouembout,-21.13,164.9,79.97,55,26,3.53,NC,1595814444
423,Inhambane,-23.86,35.38,62.83,76,0,7.45,MZ,1595814445
424,Tevaitoa,-16.78,-151.5,79.75,77,100,16.75,PF,1595814447
425,Ginir,7.13,40.7,57.56,85,94,9.24,ET,1595814448
426,Muborak,39.26,65.15,83.62,21,0,7.96,UZ,1595814449
427,Candolim,15.52,73.76,77.0,100,75,3.36,IN,1595814450
428,Nyurba,63.28,118.33,64.45,58,0,4.14,RU,1595814451
429,Kununurra,-15.77,128.73,77.0,18,24,14.99,AU,1595814453
430,Mīzan Teferī,6.98,35.58,60.73,89,100,1.52,ET,1595814454
431,Andenes,69.31,16.12,57.2,76,35,8.05,NO,1595814455
432,Llandrindod Wells,52.24,-3.38,60.01,93,100,1.01,GB,1595814456
433,Haines Junction,60.75,-137.51,54.43,58,35,13.98,CA,1595814457
434,Chipinge,-20.19,32.62,45.84,92,0,3.18,ZW,1595814458
435,Pervomayskoye,43.92,46.71,71.71,75,0,7.81,RU,1595814460
436,Ust-Maya,60.42,134.53,76.84,55,61,1.97,RU,1595814462
437,Manakara,-22.13,48.02,59.43,87,0,3.31,MG,1595814463
438,Oktyabr'skiy,54.48,53.47,54.93,92,82,3.4,RU,1595814464
439,Province of Mantua,45.17,10.78,72.0,80,0,3.0,IT,1595814465
440,Umluj,25.02,37.27,85.44,74,77,5.84,SA,1595814466
441,Delījān,33.99,50.68,81.12,21,0,2.89,IR,1595814467
442,Tshikapa,-6.42,20.8,65.35,37,0,2.28,CD,1595814469
443,Tezu,27.92,96.17,86.43,58,1,2.06,IN,1595814471
444,Talnakh,69.49,88.4,53.6,62,57,13.42,RU,1595814472
445,Wonthaggi,-38.6,145.59,57.0,84,100,14.74,AU,1595814220
446,Cullera,39.17,-0.25,77.0,85,0,1.01,ES,1595814474
447,Eyl,7.98,49.82,79.38,65,0,14.74,SO,1595814476
448,Kariba,-16.52,28.8,54.63,68,0,2.93,ZW,1595814477
449,Vol'sk,52.03,47.38,57.52,78,0,4.54,RU,1595814282
450,Koutsouras,35.03,25.95,79.7,56,0,10.36,GR,1595814480
451,Cap Malheureux,-19.98,57.61,70.0,70,96,8.01,MU,1595814481
452,Ampanihy,-24.7,44.75,55.74,83,0,5.14,MG,1595814482
453,Prosperous,53.29,-6.75,57.2,93,75,14.99,IE,1595814483
454,Surprise,33.63,-112.33,108.0,11,1,13.87,US,1595814224
455,Ivybridge,50.39,-3.92,62.01,96,100,3.0,GB,1595814485
456,Kanniyākumāri,8.08,77.57,80.37,76,96,18.05,IN,1595814487
457,Tālīkota,16.48,76.32,74.64,81,1,13.91,IN,1595814488
458,Cairns,-16.92,145.77,82.0,36,0,12.75,AU,1595814490
459,Comodoro Rivadavia,-45.87,-67.5,35.6,69,51,9.17,AR,1595814328
460,Gaoual,11.75,-13.2,73.06,94,100,2.77,GN,1595814492
461,Kavaratti,10.57,72.64,81.72,78,7,9.37,IN,1595814469
462,Buraidah,26.33,43.98,89.6,35,0,3.36,SA,1595814494
463,West Point,33.61,-88.65,84.2,79,1,3.94,US,1595814495
464,Eureka,40.8,-124.16,63.0,49,61,1.01,US,1595814497
465,Niquelândia,-14.47,-48.46,66.69,49,0,4.05,BR,1595814498
466,Erzin,36.96,36.2,80.01,87,0,1.21,TR,1595814499
467,Kenai,60.55,-151.26,64.4,59,1,11.41,US,1595814500
468,Djambala,-2.54,14.75,69.75,72,51,5.26,CG,1595814501
469,Naila,50.32,11.7,54.0,93,93,3.0,DE,1595814502
470,Marabu,4.41,114.01,82.4,83,40,3.36,MY,1595814503
471,Malakal,9.53,31.66,71.08,96,83,5.37,SS,1595814505
472,Gondal,21.97,70.8,80.46,87,16,4.61,IN,1595814506
473,Longido,-2.73,36.68,56.71,86,34,7.72,TZ,1595814507
474,Kailua,21.4,-157.74,80.6,74,75,16.11,US,1595814508
475,Goundam,16.41,-3.67,92.62,39,44,12.46,ML,1595814509
476,Bol,13.46,14.71,79.34,82,61,22.62,TD,1595814510
477,Waipawa,-41.41,175.52,53.01,81,0,6.93,NZ,1595814511
478,Morondava,-20.28,44.28,63.86,63,0,6.13,MG,1595814513
479,Ust-Kuyga,70.02,135.6,48.45,78,100,5.99,RU,1595814514
480,Sinnamary,5.38,-52.95,79.12,84,70,8.7,GF,1595814515
481,Chebenki,51.93,55.71,55.4,82,20,4.47,RU,1595814516
482,Deep River,46.1,-77.5,82.4,61,20,4.68,CA,1595814517
483,Faanui,-16.48,-151.75,79.3,77,100,15.12,PF,1595814518
484,Omboué,-1.57,9.26,72.86,87,81,8.23,GA,1595814519
485,Deniliquin,-35.53,144.97,57.0,70,100,19.86,AU,1595814521
486,Trivandrum,8.48,76.92,82.4,78,40,3.36,IN,1595814252
487,Nantucket,41.28,-70.1,73.99,94,90,14.99,US,1595814523
488,Sobradinho,-12.83,-39.1,67.62,98,34,2.73,BR,1595814524
489,Port Angeles,48.12,-123.43,80.6,49,1,2.44,US,1595814373
490,Tamiahua,21.27,-97.45,83.73,78,100,14.14,MX,1595814527
491,Inzhavino,52.32,42.49,56.19,77,15,5.06,RU,1595814528
492,Romitan,39.93,64.38,75.2,41,0,11.41,UZ,1595814529
493,Bubaque,11.28,-15.83,79.0,85,96,11.74,GW,1595814531
494,Gympie,-26.19,152.66,60.01,69,14,3.0,AU,1595814343
495,Santa Fe,-31.63,-60.7,54.0,58,0,3.0,AR,1595814533
496,Talaya,61.38,152.75,76.68,36,2,7.25,RU,1595814534
497,Nuuk,64.18,-51.72,51.01,81,99,4.7,GL,1595814535
498,Sept-Îles,50.2,-66.38,64.0,82,75,2.24,CA,1595814536
499,Alegrete,-29.78,-55.79,49.08,82,3,5.46,BR,1595814537
500,Chekhov,55.14,37.47,62.6,77,100,6.71,RU,1595814538
501,Charleston,32.78,-79.93,82.0,83,1,4.34,US,1595814458
502,Taoudenni,22.68,-3.98,96.87,9,42,8.9,ML,1595814541
503,Kiryat Gat,31.61,34.76,78.01,84,3,1.48,IL,1595814542
504,Kriel,-26.27,29.23,42.01,85,0,8.01,ZA,1595814543
505,Martinho Campos,-19.33,-45.24,64.49,73,1,5.68,BR,1595814544
506,Kyzyl-Suu,42.34,78.0,58.69,81,100,8.19,KG,1595814545
507,Lafiagi,8.87,5.42,73.09,93,100,3.76,NG,1595814547
508,Trairi,-3.28,-39.27,77.04,80,99,13.2,BR,1595814548
509,Kitoy,52.6,103.9,66.2,93,75,4.47,RU,1595814549
510,Arlit,18.74,7.39,91.4,20,55,9.42,NE,1595814550
511,Slave Lake,55.28,-114.77,71.6,60,1,8.05,CA,1595814551
512,Kemisē,10.72,39.87,65.61,78,100,8.25,ET,1595814552
513,Verkhnevilyuysk,63.45,120.32,67.23,52,0,4.0,RU,1595814553
514,Sanjwal,33.76,72.43,82.0,94,20,4.7,PK,1595814554
515,Alofi,-19.06,-169.92,75.2,88,30,14.99,NU,1595814556
516,Sobolevo,54.43,31.9,61.7,96,100,3.2,RU,1595814557
517,Beïnamar,8.67,15.38,69.51,96,78,2.44,TD,1595814558
518,La Ronge,55.1,-105.28,71.6,53,40,16.11,CA,1595814559
519,Kwang Binh,17.48,106.6,91.51,55,93,4.47,VN,1595814549
520,Hokitika,-42.72,170.97,52.74,60,0,3.33,NZ,1595814561
521,Moba,33.23,105.02,82.0,56,0,1.01,CN,1595814562
522,Waterloo,43.47,-80.52,78.8,69,1,11.41,CA,1595814528
523,Quatre Cocos,-20.21,57.76,70.0,68,75,13.87,MU,1595814564
524,Nanning,22.82,108.32,86.0,74,100,2.24,CN,1595814566
525,Susa,32.19,48.24,87.82,31,0,2.68,IR,1595814567
526,Chazuta,-6.57,-76.14,70.88,88,9,1.28,PE,1595814568
527,Avon,41.45,-82.04,84.0,57,1,5.82,US,1595814569
528,Taloqan,36.74,69.53,87.17,20,0,3.94,AF,1595814570
529,Egvekinot,66.32,-179.17,65.03,67,36,7.49,RU,1595814571
530,Inverurie,57.28,-2.38,48.2,81,58,1.12,GB,1595814572
531,Kalbay,5.72,125.5,81.09,75,100,6.08,PH,1595814573
532,Quelimane,-17.88,36.89,61.12,94,15,3.74,MZ,1595814575
533,Sibolga,1.74,98.78,82.22,67,73,2.64,ID,1595814576
534,Kangaatsiaq,68.31,-53.46,44.49,94,100,23.58,GL,1595814577
535,Ambon City,-3.7,128.18,82.4,78,40,6.93,ID,1595814578
536,Rundu,-17.93,19.77,48.09,53,0,6.55,NA,1595814579
537,Tokur,53.13,132.9,76.42,61,81,0.89,RU,1595814580
538,Asău,46.43,26.4,60.01,85,100,3.53,RO,1595814581
539,Sallanches,45.94,6.63,53.01,88,0,3.89,FR,1595814582
540,Luanda,-8.84,13.23,71.6,88,75,4.7,AO,1595814583
541,Sulangan,11.14,123.72,84.92,68,2,5.5,PH,1595814585
542,Mitú,1.2,-70.17,71.98,98,100,1.14,CO,1595814586
543,Constitución,-35.33,-72.42,50.45,84,100,8.21,CL,1595814474
544,Margate,51.38,1.39,63.0,90,100,3.0,GB,1595814588
545,Garoowe,8.41,48.48,75.74,61,38,16.96,SO,1595814589
546,Cayhagan,9.67,122.43,84.74,71,0,5.82,PH,1595814590
